[
    {
        "type": "Feature",
        "properties": {
            "id": "5901190024",
            "name": "長泰藥局",
            "phone": "02 -23012869",
            "address": "台北市萬華區西園路2段280號",
            "mask_adult": 377,
            "mask_child": 452,
            "updated": "2020\/02\/21 09:13:37",
            "available": "星期一上午看診、星期二上午看診、星期三上午看診、星期四上午看診、星期五上午看診、星期六上午看診、星期日上午看診、星期一下午看診、星期二下午看診、星期三下午看診、星期四下午看診、星期五下午看診、星期六下午看診、星期日下午看診、星期一晚上看診、星期二晚上看診、星期三晚上看診、星期四晚上看診、星期五晚上看診、星期六晚上看診、星期日晚上看診",
            "note": "口罩販賣時段：9:00起至20:00為止",
            "custom_note": "",
            "website": "",
            "county": "臺北市",
            "town": "萬華區",
            "cunli": "和德里",
            "service_periods": "NNNNNNNNNNNNNNNNNNNNN"
        },
        "geometry": {
            "type": "Point",
            "coordinates": [
                121.494213,
                25.027528
            ]
        }
    },
    {
        "type": "Feature",
        "properties": {
            "id": "5901190033",
            "name": "世欣藥局",
            "phone": "02 -23074263",
            "address": "台北市萬華區東園街173號1Ｆ",
            "mask_adult": 68,
            "mask_child": 512,
            "updated": "2020\/02\/21 09:13:37",
            "available": "星期一上午看診、星期二上午看診、星期三上午看診、星期四上午看診、星期五上午看診、星期六上午看診、星期日上午休診、星期一下午看診、星期二下午看診、星期三下午看診、星期四下午看診、星期五下午看診、星期六下午休診、星期日下午休診、星期一晚上看診、星期二晚上看診、星期三晚上看診、星期四晚上看診、星期五晚上看診、星期六晚上休診、星期日晚上休診",
            "note": "防疫口罩服務時間週一至六14:00-16:00",
            "custom_note": "",
            "website": "",
            "county": "臺北市",
            "town": "萬華區",
            "cunli": "全德里",
            "service_periods": "NNNNNNYNNNNNYYNNNNNYY"
        },
        "geometry": {
            "type": "Point",
            "coordinates": [
                121.497344,
                25.024189
            ]
        }
    },
    {
        "type": "Feature",
        "properties": {
            "id": "5901190042",
            "name": "裕和藥局",
            "phone": "02 -23063219",
            "address": "台北市萬華區萬大路115、117號",
            "mask_adult": 66,
            "mask_child": 394,
            "updated": "2020\/02\/21 09:13:37",
            "available": "星期一上午看診、星期二上午休診、星期三上午看診、星期四上午看診、星期五上午看診、星期六上午看診、星期日上午休診、星期一下午看診、星期二下午看診、星期三下午看診、星期四下午看診、星期五下午看診、星期六下午休診、星期日下午休診、星期一晚上看診、星期二晚上看診、星期三晚上看診、星期四晚上看診、星期五晚上看診、星期六晚上休診、星期日晚上休診",
            "note": "-",
            "custom_note": "",
            "website": "",
            "county": "臺北市",
            "town": "萬華區",
            "cunli": "興德里",
            "service_periods": "NYNNNNYNNNNNYYNNNNNYY"
        },
        "geometry": {
            "type": "Point",
            "coordinates": [
                121.495556,
                25.01695
            ]
        }
    },
    {
        "type": "Feature",
        "properties": {
            "id": "5901190060",
            "name": "秀全藥局",
            "phone": "02 -23811357",
            "address": "台北市萬華區開封街2段66－3號",
            "mask_adult": 0,
            "mask_child": 226,
            "updated": "2020\/02\/21 09:13:37",
            "available": "星期一上午看診、星期二上午看診、星期三上午看診、星期四上午看診、星期五上午看診、星期六上午看診、星期日上午休診、星期一下午看診、星期二下午看診、星期三下午看診、星期四下午看診、星期五下午看診、星期六下午看診、星期日下午休診、星期一晚上看診、星期二晚上看診、星期三晚上看診、星期四晚上看診、星期五晚上看診、星期六晚上看診、星期日晚上休診",
            "note": "-",
            "custom_note": "",
            "website": "",
            "county": "臺北市",
            "town": "萬華區",
            "cunli": "福星里",
            "service_periods": "NNNNNNYNNNNNNYNNNNNNY"
        },
        "geometry": {
            "type": "Point",
            "coordinates": [
                121.506147,
                25.046693
            ]
        }
    },
    {
        "type": "Feature",
        "properties": {
            "id": "5901190079",
            "name": "建和藥局",
            "phone": "02 -23010838",
            "address": "台北市萬華區青年路168巷44號",
            "mask_adult": 324,
            "mask_child": 652,
            "updated": "2020\/02\/21 09:13:37",
            "available": "星期一上午看診、星期二上午看診、星期三上午看診、星期四上午看診、星期五上午看診、星期六上午休診、星期日上午休診、星期一下午看診、星期二下午看診、星期三下午看診、星期四下午看診、星期五下午看診、星期六下午休診、星期日下午休診、星期一晚上看診、星期二晚上看診、星期三晚上看診、星期四晚上看診、星期五晚上看診、星期六晚上休診、星期日晚上休診",
            "note": "-",
            "custom_note": "",
            "website": "",
            "county": "臺北市",
            "town": "萬華區",
            "cunli": "日祥里",
            "service_periods": "NNNNNYYNNNNNYYNNNNNYY"
        },
        "geometry": {
            "type": "Point",
            "coordinates": [
                121.501612,
                25.019874
            ]
        }
    },
    {
        "type": "Feature",
        "properties": {
            "id": "5901190104",
            "name": "大嘉藥局",
            "phone": "02 -23084402",
            "address": "台北市萬華區梧州街60號",
            "mask_adult": 15,
            "mask_child": 588,
            "updated": "2020\/02\/21 09:13:37",
            "available": "星期一上午休診、星期二上午休診、星期三上午休診、星期四上午休診、星期五上午休診、星期六上午休診、星期日上午休診、星期一下午看診、星期二下午看診、星期三下午看診、星期四下午看診、星期五下午看診、星期六下午看診、星期日下午休診、星期一晚上看診、星期二晚上看診、星期三晚上看診、星期四晚上看診、星期五晚上看診、星期六晚上看診、星期日晚上休診",
            "note": "週一到週六 口罩 依照郵差送來時間後 約15點開始現場排隊 週日休息",
            "custom_note": "2020\/02\/18 1530發號碼牌",
            "website": "",
            "county": "臺北市",
            "town": "萬華區",
            "cunli": "青山里",
            "service_periods": "YYYYYYYNNNNNNYNNNNNNY"
        },
        "geometry": {
            "type": "Point",
            "coordinates": [
                121.497508,
                25.035807
            ]
        }
    },
    {
        "type": "Feature",
        "properties": {
            "id": "5901190177",
            "name": "信昌藥局",
            "phone": "02 -23054898",
            "address": "台北市萬華區長泰街36號1樓",
            "mask_adult": 0,
            "mask_child": 290,
            "updated": "2020\/02\/21 09:13:37",
            "available": "星期一上午看診、星期二上午看診、星期三上午看診、星期四上午看診、星期五上午看診、星期六上午看診、星期日上午休診、星期一下午看診、星期二下午看診、星期三下午看診、星期四下午看診、星期五下午看診、星期六下午看診、星期日下午休診、星期一晚上看診、星期二晚上看診、星期三晚上看診、星期四晚上看診、星期五晚上看診、星期六晚上看診、星期日晚上休診",
            "note": "固定週一~週六下午12:30發號碼牌，下午四點~八點前取回健保卡與口罩",
            "custom_note": "",
            "website": "",
            "county": "臺北市",
            "town": "萬華區",
            "cunli": "壽德里",
            "service_periods": "NNNNNNYNNNNNNYNNNNNNY"
        },
        "geometry": {
            "type": "Point",
            "coordinates": [
                121.500693,
                25.02336
            ]
        }
    },
    {
        "type": "Feature",
        "properties": {
            "id": "5901190211",
            "name": "民和藥局",
            "phone": "02 -23038134",
            "address": "台北市萬華區民和街5號1樓",
            "mask_adult": 90,
            "mask_child": 84,
            "updated": "2020\/02\/21 09:13:37",
            "available": "星期一上午看診、星期二上午看診、星期三上午看診、星期四上午看診、星期五上午看診、星期六上午看診、星期日上午休診、星期一下午看診、星期二下午看診、星期三下午看診、星期四下午看診、星期五下午看診、星期六下午看診、星期日下午休診、星期一晚上看診、星期二晚上看診、星期三晚上看診、星期四晚上看診、星期五晚上看診、星期六晚上休診、星期日晚上休診",
            "note": "-",
            "custom_note": "",
            "website": "",
            "county": "臺北市",
            "town": "萬華區",
            "cunli": "全德里",
            "service_periods": "NNNNNNYNNNNNNYNNNNNYY"
        },
        "geometry": {
            "type": "Point",
            "coordinates": [
                121.499962,
                25.026277
            ]
        }
    },
    {
        "type": "Feature",
        "properties": {
            "id": "5901190220",
            "name": "生活大藥局",
            "phone": "02 -23618609",
            "address": "台北市萬華區貴陽街2段124號",
            "mask_adult": 0,
            "mask_child": 90,
            "updated": "2020\/02\/21 09:13:37",
            "available": "星期一上午看診、星期二上午看診、星期三上午看診、星期四上午看診、星期五上午看診、星期六上午看診、星期日上午休診、星期一下午看診、星期二下午看診、星期三下午看診、星期四下午看診、星期五下午看診、星期六下午看診、星期日下午休診、星期一晚上看診、星期二晚上看診、星期三晚上看診、星期四晚上看診、星期五晚上看診、星期六晚上看診、星期日晚上休診",
            "note": "-",
            "custom_note": "",
            "website": "",
            "county": "臺北市",
            "town": "萬華區",
            "cunli": "福音里",
            "service_periods": "NNNNNNYNNNNNNYNNNNNNY"
        },
        "geometry": {
            "type": "Point",
            "coordinates": [
                121.5025,
                25.039949
            ]
        }
    },
    {
        "type": "Feature",
        "properties": {
            "id": "5901190284",
            "name": "民鈺藥局",
            "phone": "02 -23084270",
            "address": "台北市萬華區環河南路2段139號1樓",
            "mask_adult": 0,
            "mask_child": 285,
            "updated": "2020\/02\/21 09:13:37",
            "available": "星期一上午看診、星期二上午看診、星期三上午看診、星期四上午看診、星期五上午看診、星期六上午看診、星期日上午看診、星期一下午看診、星期二下午看診、星期三下午看診、星期四下午看診、星期五下午看診、星期六下午看診、星期日下午看診、星期一晚上看診、星期二晚上看診、星期三晚上看診、星期四晚上看診、星期五晚上看診、星期六晚上休診、星期日晚上休診",
            "note": "春節1\/24營業到下午6點，1\/25~1\/27休息，1\/28正常營業",
            "custom_note": "",
            "website": "",
            "county": "臺北市",
            "town": "萬華區",
            "cunli": "糖廍里",
            "service_periods": "NNNNNNNNNNNNNNNNNNNYY"
        },
        "geometry": {
            "type": "Point",
            "coordinates": [
                121.493256,
                25.033962
            ]
        }
    }
]